[{"opening_hours":"12am-12pm","latitude":"1.556396","name":"7-Eleven, Jalan Borneo","longitude":"110.350547","location":"TAMAN SRI SARAWAK, JALAN BORNEO, 91300 KUCHING, SARAWAK","id":"0","picture":"..\/img\/places\/convenience_store\/7-Eleven,_Jalan_Borneo.png"},{"opening_hours":"12am-12pm","latitude":"1.555211","name":"7-Eleven, Macdougall Road","longitude":"110.347301","location":"No 5-6, Fata Hotel, Macdougall Road, 93000, Kuching, Sarawak","id":"1","picture":"..\/img\/places\/convenience_store\/7-Eleven,_Macdougall_Road.png"},{"opening_hours":"12am-12pm","latitude":"1.558418","name":"7-Eleven, Jalan Tunku Abdul Rahman","longitude":"110.351652","location":"SUBLOT NO.297-1-1,2,7 & 8, LEVEL 1, RIVERBANK SUITES APARTMENT, JLN TUNKU ABDUL RAHMAN, 93100 KUCHING, SARAWAK","id":"2","picture":"..\/img\/places\/convenience_store\/7-Eleven,_Jalan_Tunku_Abdul_Rahman.png"},{"opening_hours":"12am-12pm","latitude":"1.558659","name":"7-Eleven, Carpenter Street","longitude":"110.345391","location":"NO 8, CARPENTER STREET, 93000 KUCHING, SARAWAK","id":"3","picture":"..\/img\/places\/convenience_store\/7-Eleven,_Carpenter_Street.png"},{"opening_hours":"12am-12pm","latitude":"1.555179","name":"7-Eleven, Jalan Song Thian Cheok","longitude":"110.353406","location":"LOT 178 (GF), JALAN SONG THIAN CHEOK, 93100 KUCHING, SARAWAK","id":"4","picture":"..\/img\/places\/convenience_store\/7-Eleven,_Jalan_Song_Thian_Cheok.png"},{"opening_hours":"Mon-Sun (10:00am-10:00pm)","latitude":"1.55748","name":"Seven Trading","longitude":"110.348557","location":null,"id":"5","picture":"..\/img\/places\/convenience_store\/Seven_Trading.png"}]