[{"Website":"www.hlb.com.my\/","Description":"Bank Services","Longtitude":"110.343567","Opening_Hours":"9am-5pm ","Location":"No. 35, Jalan Khoo Hun Yeang, 93000 Kuching, Sarawak.","Latitude":"1.558","Name":"Hong Leong Bank","id":"id_0"},{"Website":"www.cimbbank.com.my\/","Description":"Bank Services","Longtitude":"110.343491","Opening_Hours":"9am-5pm ","Location":"32 Jalan Khoo Hun Yeang 93000 Kuching, Sarawak","Latitude":"1.557978","Name":"CIMB Bank","id":"id_1"},{"Website":"www.uob.com.my\/","Description":"Bank Services","Longtitude":"110.34568","Opening_Hours":"9am-5pm ","Location":"1-3, Main Bazaar, Kuching, 93000, Kuching, Sarawak, 93000","Latitude":"1.559598","Name":"United Overseas Bank","id":"id_2"},{"Website":"www.maybank2u.com.my\/","Description":"Bank Services","Longtitude":"110.354038","Opening_Hours":"9am-5pm ","Location":"Lots 250-253,Jalan Tunku Abdul Rahman,93100 Kuching,Sarawak","Latitude":"1.557463","Name":"Maybank","id":"id_3"},{"Website":"www.cimbbank.com.my\/","Description":"Bank Services","Longtitude":"110.352612","Opening_Hours":"9am-5pm ","Location":"Lot 262, Section 48, Jalan Tunku Abdul RahmanWisma Bukit Mata Kuching, 93100 Kuching, Sarawak","Latitude":"1.557088","Name":"CIMB Bank","id":"id_4"},{"Website":"www.ocbc.com.my\/","Description":"Bank Services","Longtitude":"110.352558","Opening_Hours":"9am-5pm ","Location":"UG, Somerset Gateway, Jalan Bukit Mata, 93100, Kuching, Sarawak93100","Latitude":"1.555453","Name":"OCBC Bank","id":"id_5"},{"Website":"www.hlb.com.my\/","Description":"Bank Services","Longtitude":"110.35377","Opening_Hours":"9am-5pm ","Location":"Lot 122 - 124, Jalan Song Thian Cheok, 93100, Kuching, Sarawak93100","Latitude":"1.555962","Name":"Hong Leong Bank","id":"id_6"},{"Website":"www.eonbank.com.my\/","Description":"Bank Services","Longtitude":"110.353287","Opening_Hours":"9am-5pm ","Location":"Lot 122 & 123, Jalan Song Thian Cheok, 93100 Kuching, Sarawak.93100","Latitude":"1.553753","Name":"Eon Bank","id":"id_7"},{"Website":"www.pbebank.com\/","Description":"Bank Services","Longtitude":"110.354156","Opening_Hours":"9am-5pm ","Location":"102-110, Second Floor, Jalan Song Thian Cheok, Kuching, 93100, Kuching, Sarawak","Latitude":"1.555576","Name":"Public Bank","id":"id_8"},{"Website":"www.publicmutual.com.my\/","Description":"Bank Services","Longtitude":"110.354339","Opening_Hours":"9am-5pm ","Location":"Jalan Tunku Abdul Rahman93100 Kuching, Sarawak","Latitude":"1.557329","Name":"Public Mutual Fund","id":"id_9"},{"Website":"www.alliancebank.com.my\/","Description":"Bank Services","Longtitude":"110.354581","Opening_Hours":"9am-5pm ","Location":"178, Jalan Chan Chin Ann, Kuching, 93100, Sarawak93100","Latitude":"1.557147","Name":"Alliance Bank","id":"id_10"},{"Website":"www.oskgroup.com\/","Description":"Bank Services","Longtitude":"110.354666","Opening_Hours":"9am-5pm ","Location":"171 Jalan Chan Chin Ann93100 Kuching, Sarawak","Latitude":"1.557131","Name":"OSK Investment bank","id":"id_11"},{"Website":"www.amesecurities.com.my\/","Description":"Bank Services","Longtitude":"110.355761","Opening_Hours":"9am-5pm ","Location":"No. 166, 1st Floor, Jalan Abell, 93100, Kuching, Sarawak93100","Latitude":"1.556981","Name":"AmInvestment Bank","id":"id_12"},{"Website":"www.uaeexchange.com\/","Description":"Currency Exchange","Longtitude":"110.353256","Opening_Hours":"9am-6pm ","Location":"18, Jalan Tunku Abdul Rahman93100 Kuching, Sarawak, Malaysia","Latitude":"1.557002","Name":"UAE Xchange","id":"id_13"}]