[{"website":"www.hlb.com.my\/","description":"Bank Services","longitude":"110.343567","opening_hours":"9am-5pm ","location":"No. 35, Jalan Khoo Hun Yeang, 93000 Kuching, Sarawak.","latitude":"1.558","name":"Hong Leong Bank","id":"0","picture":"..\/img\/places\/financial_institution\/Hong_Leong_Bank.png"},{"website":"www.cimbbank.com.my\/","description":"Bank Services","longitude":"110.343491","opening_hours":"9am-5pm ","location":"32 Jalan Khoo Hun Yeang 93000 Kuching, Sarawak","latitude":"1.557978","name":"CIMB Bank","id":"1","picture":"..\/img\/places\/financial_institution\/CIMB_Bank.png"},{"website":"www.uob.com.my\/","description":"Bank Services","longitude":"110.34568","opening_hours":"9am-5pm ","location":"1-3, Main Bazaar, Kuching, 93000, Kuching, Sarawak, 93000","latitude":"1.559598","name":"United Overseas Bank","id":"2","picture":"..\/img\/places\/financial_institution\/United_Overseas_Bank.png"},{"website":"www.maybank2u.com.my\/","description":"Bank Services","longitude":"110.354038","opening_hours":"9am-5pm ","location":"Lots 250-253,Jalan Tunku Abdul Rahman,93100 Kuching,Sarawak","latitude":"1.557463","name":"Maybank","id":"3","picture":"..\/img\/places\/financial_institution\/Maybank.png"},{"website":"www.cimbbank.com.my\/","description":"Bank Services","longitude":"110.352612","opening_hours":"9am-5pm ","location":"Lot 262, Section 48, Jalan Tunku Abdul RahmanWisma Bukit Mata Kuching, 93100 Kuching, Sarawak","latitude":"1.557088","name":"CIMB Bank","id":"4","picture":"..\/img\/places\/financial_institution\/CIMB_Bank.png"},{"website":"www.ocbc.com.my\/","description":"Bank Services","longitude":"110.352558","opening_hours":"9am-5pm ","location":"UG, Somerset Gateway, Jalan Bukit Mata, 93100, Kuching, Sarawak93100","latitude":"1.555453","name":"OCBC Bank","id":"5","picture":"..\/img\/places\/financial_institution\/OCBC_Bank.png"},{"website":"www.hlb.com.my\/","description":"Bank Services","longitude":"110.35377","opening_hours":"9am-5pm ","location":"Lot 122 - 124, Jalan Song Thian Cheok, 93100, Kuching, Sarawak93100","latitude":"1.555962","name":"Hong Leong Bank","id":"6","picture":"..\/img\/places\/financial_institution\/Hong_Leong_Bank.png"},{"website":"www.eonbank.com.my\/","description":"Bank Services","longitude":"110.353287","opening_hours":"9am-5pm ","location":"Lot 122 & 123, Jalan Song Thian Cheok, 93100 Kuching, Sarawak.93100","latitude":"1.553753","name":"Eon Bank","id":"7","picture":"..\/img\/places\/financial_institution\/Eon_Bank.png"},{"website":"www.pbebank.com\/","description":"Bank Services","longitude":"110.354156","opening_hours":"9am-5pm ","location":"102-110, Second Floor, Jalan Song Thian Cheok, Kuching, 93100, Kuching, Sarawak","latitude":"1.555576","name":"Public Bank","id":"8","picture":"..\/img\/places\/financial_institution\/Public_Bank.png"},{"website":"www.publicmutual.com.my\/","description":"Bank Services","longitude":"110.354339","opening_hours":"9am-5pm ","location":"Jalan Tunku Abdul Rahman93100 Kuching, Sarawak","latitude":"1.557329","name":"Public Mutual Fund","id":"9","picture":"..\/img\/places\/financial_institution\/Public_Mutual_Fund.png"},{"website":"www.alliancebank.com.my\/","description":"Bank Services","longitude":"110.354581","opening_hours":"9am-5pm ","location":"178, Jalan Chan Chin Ann, Kuching, 93100, Sarawak93100","latitude":"1.557147","name":"Alliance Bank","id":"10","picture":"..\/img\/places\/financial_institution\/Alliance_Bank.png"},{"website":"www.oskgroup.com\/","description":"Bank Services","longitude":"110.354666","opening_hours":"9am-5pm ","location":"171 Jalan Chan Chin Ann93100 Kuching, Sarawak","latitude":"1.557131","name":"OSK Investment bank","id":"11","picture":"..\/img\/places\/financial_institution\/OSK_Investment_bank.png"},{"website":"www.amesecurities.com.my\/","description":"Bank Services","longitude":"110.355761","opening_hours":"9am-5pm ","location":"No. 166, 1st Floor, Jalan Abell, 93100, Kuching, Sarawak93100","latitude":"1.556981","name":"AmInvestment Bank","id":"12","picture":"..\/img\/places\/financial_institution\/AmInvestment_Bank.png"},{"website":"www.uaeexchange.com\/","description":"Currency Exchange","longitude":"110.353256","opening_hours":"9am-6pm ","location":"18, Jalan Tunku Abdul Rahman93100 Kuching, Sarawak, Malaysia","latitude":"1.557002","name":"UAE Xchange","id":"13","picture":"..\/img\/places\/financial_institution\/UAE_Xchange.png"}]