[{"Name":"The Knights ","Description_":"Club, Bar Alcoholic Beverages: Beer,Wines,Spirits","Longtitude":"110.351765","Opening_hours_":"Opening hours Mon-Sat(8pm-2am)","Location":"93100 Kuching, Sarawak","Latitude":"1.556168","Price_range":"RM 15-250","id":"0"},{"Name":"Havana","Description_":"Pub and Club Alcoholic and Non-Alcoholic Beverages-Beer-Wines-Whisky-Assorted Spirits ","Longtitude":"110.348581","Opening_hours_":"Opening hours Mon-Sat8pm-2:30am)Sunday Closed","Location":"80, 82 & 84 Wayang Street, 93000 Kuchinhg, Sarawak ","Latitude":"1.556037","Price_range":"RM 8-250","id":"1"},{"Name":"The Shore bistro","Description_":"Alcoholic beverages Beer,Wines, liquor, whisky ","Longtitude":"110.354967","Opening_hours_":"Opening hours Mon-Sun(2:00 pm - 2:00 am","Location":"Lot 228, G\/F, S\/L 1, No. 50, Wisma Ho Ho Lim, Jalan Abell, 93100 Kuching, Malaysia","Latitude":"1.556809","Price_range":"RM 10-250","id":"2"},{"Name":"Grappa","Description_":"ClubAlcoholic and Non-alcoholic beverages  Beer, Wines,liquor,Whisky ","Longtitude":"110.354173","Opening_hours_":"Opening hours Mon-Sat(8:00pm-2:00am)","Location":"Jln Padungan Bukit Mata Kuching","Latitude":"1.556308","Price_range":"RM 14-250","id":"3"},{"Name":"Cock And Bull","Description_":"Alcoholic and Non-alcoholic beverages  Beer, Wines,liquor,Whisky ","Longtitude":"110.354173","Opening_hours_":"opening hours Mon-Sat(8:00pm-2:00am)","Location":"62 Jalan Padungan , 93100 Kuching, Malaysia","Latitude":"1.556308","Price_range":"","id":"4"},{"Name":"Trance Lounge ","Description_":"","Longtitude":"110.355871","Opening_hours_":"Opening hours Mon-Sat(8:00pm-2:00am)","Location":"Ground Floor, Lot 231, Section 49,, Jalan Tunku Abdul Rahman,, 93100 Kuching","Latitude":"1.556954","Price_range":"RM 14-250","id":"5"},{"Name":"Backstage","Description_":"Pub\/ClubAlcoholic and Non-alcoholic beverages  Beer, Wines,liquor,Whisky ","Longtitude":"110.348468","Opening_hours_":"Opening hours Mon-Sat(8:00pm-2:00am)","Location":"80, 82 & 84 Wayang Street, 93000 Kuchinhg, Sarawak ","Latitude":"1.555981","Price_range":"RM 14-250","id":"6"},{"Name":"The Curve","Description_":"Bar\/ClubAlcoholic and Non-alcoholic beverages  Beer, Wines,liquor,Whisky ","Longtitude":"110.35487","Opening_hours_":"Opening hours Mon-Sat(8:00pm-2:00am)","Location":"Jalan Tunku Abdul Rahman, Kuching, Sarawak 93100, Malaysia","Latitude":"1.556895","Price_range":"RM 14-250","id":"7"}]