[{"Name":"HIANG THIAN SIANG TI TEMPLE","Description_":"This temple was originally built by the Teochew immigrants from China ","Longtitude":"110.345841","Opening_hours_":"Mon-Sun (10:00am-6:00pm)","Location":"carpenter street","Latitude":"1.558214","Price_range":"-","id":"id_0"},{"Name":"Muzium Tekstil","Description_":"The textile museum showcases authentic textiles made by the main ethnic ","Longtitude":"110.344729","Opening_hours_":"Mon-Sun (10:00am-6:00pm)","Location":"Bangunan Pavilion, Jalan Tun Abang Haji Openg 93566 Kuching Sarawak ","Latitude":"1.558635","Price_range":"-","id":"id_1"},{"Name":"Sarawak Tourism Complex","Description_":"Historical Landmark, Tourist Information Centre","Longtitude":"110.344913","Opening_hours_":"Mon-Sun (10:00am-6:00pm)","Location":"Jalan Tun Abang Haji OpengKuching, Sarawak","Latitude":"1.560123","Price_range":"-","id":"id_2"},{"Name":"Sarawak Museum","Description_":"The Sarawak State Museum is the oldest museum in Borneo. It was established in 1888 and opened in 1891 in a purpose-built building in Kuching, Sarawak","Longtitude":"110.341601","Opening_hours_":"Mon-Sun (10:00am-6:00pm)","Location":"Pengarah Jabatan Muzium Negeri Sarawak, Jalan Tun Abang Haji Openg, 93566, Kuching, Sarawak  93000","Latitude":"1.548969","Price_range":"-","id":"id_3"},{"Name":"Main Bazaar, Kuching","Description_":"Main Bazaar is one of Kuchings oldest streets (dating back to 1864","Longtitude":"110.34701","Opening_hours_":"","Location":"Jalan Main BazaarKuching, Sarawak","Latitude":"1.558836","Price_range":"-","id":"id_4"},{"Name":"Carpenter Street, Kuching","Description_":"Carpenter Street is an old street that runs from Jalan Tun Abang Haji Openg, where the General Post Office is located","Longtitude":"110.345938","Opening_hours_":"-","Location":"Jalan Carpenter 93000 Kuching, Sarawak","Latitude":"1.558557","Price_range":"-","id":"id_5"},{"Name":"Chinese History Museum","Description_":"located near the Kuching Waterfront and is housed in a building that was originally the Chinese Chamber of Commerce, built in 1912","Longtitude":"110.338168","Opening_hours_":"-","Location":"Jalan Tunku Abdul Rahman  93756 Kuching082-231 520","Latitude":"1.554975","Price_range":"-","id":"id_6"},{"Name":"Waterfront, Kuching","Description_":"Kuching Waterfront is the esplanade on the south bank of the Sarawak River. In the 19th century, this area had warehouses and wharfs and was very busy with ships coming in to dock. ","Longtitude":"110.346266","Opening_hours_":"-","Location":"Jalan Main Bazaar, Kuching, Sarawak ","Latitude":"1.559287","Price_range":"-","id":"id_7"},{"Name":"Square Tower, Kuching","Description_":"The Square Tower is located on the Kuching Waterfront and is a white cube-like structure in the shape of a fortress","Longtitude":"110.344141","Opening_hours_":"-","Location":"Jalan Gambier, Kuching, Sarawak ","Latitude":"1.562054","Price_range":"-","id":"id_8"},{"Name":"Kuching Cat Statue, Sarawak ","Description_":"One of the famous landmarks around the main town area is the Cat Statue which is located opposite the Riverside Majestic ","Longtitude":"110.352681","Opening_hours_":"-","Location":"Riverside Majestic Hotel on Jalan Tunku Abdul Rahman and Jalan Abell.","Latitude":"1.557807","Price_range":"-","id":"id_9"},{"Name":"Borneo Magic ","Description_":"Sarawak Artifacts-Traditional Clothing  -Souvenirs","Longtitude":"110.3486","Opening_hours_":"Mon-Sun (10:00am-10:00pm)","Location":"","Latitude":"1.557533","Price_range":"RM 10-50","id":"id_10"},{"Name":"Jing Lee Souvenir ","Description_":"Sarawak Traditional Clothing- Traditional Black pepper-Traditional handicrafts","Longtitude":"110.3486","Opening_hours_":"Mon-Sun (10:00am-10:00pm)","Location":"","Latitude":"1.557533","Price_range":"RM 8-50","id":"id_11"},{"Name":"BanLee Hog ","Description_":"Traditional Sarawak Spices","Longtitude":"110.348557","Opening_hours_":"Mon-Sun (10:00am-10:00pm)","Location":"","Latitude":"1.55748","Price_range":"RM 8-20","id":"id_12"},{"Name":"Seven Trading","Description_":"Traditional Cakes-Kek lapis","Longtitude":"110.348557","Opening_hours_":"Mon-Sun (10:00am-10:00pm)","Location":"","Latitude":"1.55748","Price_range":"RM 10-30","id":"id_13"},{"Name":"Arts Of Asia","Description_":"Traditional Clothing-Sarawak handicrafts","Longtitude":"110.348409","Opening_hours_":"Mon-Sun (10:00am-10:00pm)","Location":"68, Main Bazaar, Kuching, 93000, Kuching, Sarawak, 93000 ","Latitude":"1.557836","Price_range":"RM 10-60","id":"id_14"},{"Name":"Borneo Antique Gallery","Description_":"Traditional gallery -Iban Shields-Traditional Clothing","Longtitude":"110.347929","Opening_hours_":"Mon-Sun (10:00am-10:00pm)","Location":"33, Main Bazaar, Kuching, 93100, Kuching, Sarawak, 93000 ","Latitude":"1.558233","Price_range":"RM 20-100","id":"id_15"},{"Name":"Fabriko ","Description_":"Traditional dayak dresses  ","Longtitude":"110.34686","Opening_hours_":"Mon-Sun (10:00am-10:00pm)","Location":"19, India Street, Kuching, 93000, Kuching, Sarawak, 93000 ","Latitude":"1.5583","Price_range":"RM 20-100","id":"id_16"},{"Name":"Thian Seng Gold Smith","Description_":"Traditional Handicraft-Jewelries","Longtitude":"110.347023","Opening_hours_":"Mon-Sun (10:00am-10:00pm)","Location":"48, Main Bazaar, Kuching, 93000, Kuching, Sarawak93000Get directions?","Latitude":"1.558788","Price_range":"RM 20-100","id":"id_17"},{"Name":"King Guan Seefood","Description_":"Traditional seafood-Sarawak Black pepper ","Longtitude":"110.347108","Opening_hours_":"Mon-Sun (10:00am-10:00pm)","Location":"40, Main Bazaar, Kuching, 93000, Kuching, Sarawak, 93000 ","Latitude":"1.558659","Price_range":"RM 20-100","id":"id_18"},{"Name":"UNIKA Borneo ","Description_":"Arts and Artifacts Traditional clothingTraditional Sarawak arts","Longtitude":"110.347648","Opening_hours_":"Mon-Sun (10:00am-10:00pm)","Location":"5, Wayang Street, Kuching, 93000, Kuching, Sarawak, 93000 ","Latitude":"1.557426","Price_range":"RM 20-100","id":"id_19"},{"Name":"kelvin gallery ","Description_":"Arts and handicraftsTraditional Sarawak arts","Longtitude":"110.346787","Opening_hours_":"Mon-Sun (10:00am-10:00pm)","Location":"32, Main Bazaar, Kuching, 93000, Kuching, Sarawak, 93000 ","Latitude":"1.55893","Price_range":"RM 20-100","id":"id_20"},{"Name":"99 Elegance ","Description_":"Arts and handicrafts Traditional Sarawak arts","Longtitude":"110.346958","Opening_hours_":"Mon-Sun (10:00am-10:00pm)","Location":"38, Main Bazaar, Kuching, 93000, Kuching, Sarawak, 93000 ","Latitude":"1.558793","Price_range":"RM 20-100","id":"id_21"},{"Name":"Livan Handicrafts","Description_":"Arts and handicraftsTraditional Sarawak arts","Longtitude":"110.347221","Opening_hours_":"Mon-Sun (10:00am-10:00pm)","Location":"45, Main Bazaar, Kuching, 93100, Kuching, Sarawak, 93000 ","Latitude":"1.55863","Price_range":"RM 20-100","id":"id_22"}]